[
  {
    "airport_id": 1,
    "iata_code": "SVO",
    "icao_code": "UUEE",
    "name": "Шереметьево",
    "city": "Москва",
    "country": "Россия",
    "timezone": "Europe/Moscow",
    "latitude": 55.972641,
    "longitude": 37.414589
  },
  {
    "airport_id": 2,
    "iata_code": "DME",
    "icao_code": "UUDD",
    "name": "Домодедово",
    "city": "Москва",
    "country": "Россия",
    "timezone": "Europe/Moscow",
    "latitude": 55.408611,
    "longitude": 37.906111
  },
  {
    "airport_id": 3,
    "iata_code": "VKO",
    "icao_code": "UUWW",
    "name": "Внуково",
    "city": "Москва",
    "country": "Россия",
    "timezone": "Europe/Moscow",
    "latitude": 55.591531,
    "longitude": 37.261486
  },
  {
    "airport_id": 4,
    "iata_code": "LED",
    "icao_code": "ULLI",
    "name": "Пулково",
    "city": "Санкт-Петербург",
    "country": "Россия",
    "timezone": "Europe/Moscow",
    "latitude": 59.800292,
    "longitude": 30.262503
  },
  {
    "airport_id": 5,
    "iata_code": "AER",
    "icao_code": "URSS",
    "name": "Сочи",
    "city": "Сочи",
    "country": "Россия",
    "timezone": "Europe/Moscow",
    "latitude": 43.449928,
    "longitude": 39.956589
  },
  {
    "airport_id": 6,
    "iata_code": "KRR",
    "icao_code": "URKK",
    "name": "Пашковский",
    "city": "Краснодар",
    "country": "Россия",
    "timezone": "Europe/Moscow",
    "latitude": 45.034689,
    "longitude": 39.170539
  },
  {
    "airport_id": 7,
    "iata_code": "IST",
    "icao_code": "LTFM",
    "name": "Стамбул",
    "city": "Стамбул",
    "country": "Турция",
    "timezone": "Europe/Istanbul",
    "latitude": 41.275278,
    "longitude": 28.751944
  },
  {
    "airport_id": 8,
    "iata_code": "SAW",
    "icao_code": "LTFJ",
    "name": "Сабіха Гекчен",
    "city": "Стамбул",
    "country": "Турция",
    "timezone": "Europe/Istanbul",
    "latitude": 40.898553,
    "longitude": 29.309219
  },
  {
    "airport_id": 9,
    "iata_code": "FRA",
    "icao_code": "EDDF",
    "name": "Франкфурт-на-Майне",
    "city": "Франкфурт",
    "country": "Германия",
    "timezone": "Europe/Berlin",
    "latitude": 50.026421,
    "longitude": 8.543125
  },
  {
    "airport_id": 10,
    "iata_code": "CDG",
    "icao_code": "LFPG",
    "name": "Шарль-де-Голль",
    "city": "Париж",
    "country": "Франция",
    "timezone": "Europe/Paris",
    "latitude": 49.009691,
    "longitude": 2.547925
  },
  {
    "airport_id": 11,
    "iata_code": "LHR",
    "icao_code": "EGLL",
    "name": "Хитроу",
    "city": "Лондон",
    "country": "Великобритания",
    "timezone": "Europe/London",
    "latitude": 51.470022,
    "longitude": -0.454295
  },
  {
    "airport_id": 12,
    "iata_code": "DXB",
    "icao_code": "OMDB",
    "name": "Дубай",
    "city": "Дубай",
    "country": "ОАЭ",
    "timezone": "Asia/Dubai",
    "latitude": 25.253175,
    "longitude": 55.365673
  },
  {
    "airport_id": 13,
    "iata_code": "AUH",
    "icao_code": "OMAA",
    "name": "Абу-Даби",
    "city": "Абу-Даби",
    "country": "ОАЭ",
    "timezone": "Asia/Dubai",
    "latitude": 24.443089,
    "longitude": 54.651684
  },
  {
    "airport_id": 14,
    "iata_code": "JFK",
    "icao_code": "KJFK",
    "name": "Джон Кеннеди",
    "city": "Нью-Йорк",
    "country": "США",
    "timezone": "America/New_York",
    "latitude": 40.641311,
    "longitude": -73.778139
  },
  {
    "airport_id": 15,
    "iata_code": "LAX",
    "icao_code": "KLAX",
    "name": "Лос-Анджелес",
    "city": "Лос-Анджелес",
    "country": "США",
    "timezone": "America/Los_Angeles",
    "latitude": 33.941589,
    "longitude": -118.408530
  },
  {
    "airport_id": 16,
    "iata_code": "HND",
    "icao_code": "RJTT",
    "name": "Ханеда",
    "city": "Токио",
    "country": "Япония",
    "timezone": "Asia/Tokyo",
    "latitude": 35.549369,
    "longitude": 139.779839
  },
  {
    "airport_id": 17,
    "iata_code": "SIN",
    "icao_code": "WSSS",
    "name": "Чанги",
    "city": "Сингапур",
    "country": "Сингапур",
    "timezone": "Asia/Singapore",
    "latitude": 1.364420,
    "longitude": 103.991531
  },
  {
    "airport_id": 18,
    "iata_code": "ICN",
    "icao_code": "RKSI",
    "name": "Инчхон",
    "city": "Сеул",
    "country": "Южная Корея",
    "timezone": "Asia/Seoul",
    "latitude": 37.460191,
    "longitude": 126.440697
  },
  {
    "airport_id": 19,
    "iata_code": "BKK",
    "icao_code": "VTBS",
    "name": "Суварнабхуми",
    "city": "Бангкок",
    "country": "Таиланд",
    "timezone": "Asia/Bangkok",
    "latitude": 13.681108,
    "longitude": 100.747283
  },
  {
    "airport_id": 20,
    "iata_code": "FCO",
    "icao_code": "LIRF",
    "name": "Фьюмичино",
    "city": "Рим",
    "country": "Италия",
    "timezone": "Europe/Rome",
    "latitude": 41.800278,
    "longitude": 12.238889
  },
  {
    "airport_id": 21,
    "iata_code": "WAW",
    "icao_code": "EPWA",
    "name": "Шопен",
    "city": "Варшава",
    "country": "Польша",
    "timezone": "Europe/Warsaw",
    "latitude": 52.165750,
    "longitude": 20.967122
  },
  {
    "airport_id": 22,
    "iata_code": "ZRH",
    "icao_code": "LSZH",
    "name": "Цюрих",
    "city": "Цюрих",
    "country": "Швейцария",
    "timezone": "Europe/Zurich",
    "latitude": 47.464722,
    "longitude": 8.549167
  },
  {
    "airport_id": 23,
    "iata_code": "HEL",
    "icao_code": "EFHK",
    "name": "Хельсинки-Вантаа",
    "city": "Хельсинки",
    "country": "Финляндия",
    "timezone": "Europe/Helsinki",
    "latitude": 60.317222,
    "longitude": 24.963333
  },
  {
    "airport_id": 24,
    "iata_code": "AMS",
    "icao_code": "EHAM",
    "name": "Схипхол",
    "city": "Амстердам",
    "country": "Нидерланды",
    "timezone": "Europe/Amsterdam",
    "latitude": 52.308613,
    "longitude": 4.763889
  },
  {
    "airport_id": 25,
    "iata_code": "MAD",
    "icao_code": "LEMD",
    "name": "Барахас",
    "city": "Мадрид",
    "country": "Испания",
    "timezone": "Europe/Madrid",
    "latitude": 40.493556,
    "longitude": -3.566764
  },
  {
    "airport_id": 26,
    "iata_code": "EVN",
    "icao_code": "UDYZ",
    "name": "Звартноц",
    "city": "Ереван",
    "country": "Армения",
    "timezone": "Asia/Yerevan",
    "latitude": 40.147275,
    "longitude": 44.395881
  },
  {
    "airport_id": 27,
    "iata_code": "TBS",
    "icao_code": "UGTB",
    "name": "Тбилиси",
    "city": "Тбилиси",
    "country": "Грузия",
    "timezone": "Asia/Tbilisi",
    "latitude": 41.669167,
    "longitude": 44.954722
  },
  {
    "airport_id": 28,
    "iata_code": "ALA",
    "icao_code": "UAAA",
    "name": "Алматы",
    "city": "Алматы",
    "country": "Казахстан",
    "timezone": "Asia/Almaty",
    "latitude": 43.352072,
    "longitude": 77.040508
  },
  {
    "airport_id": 29,
    "iata_code": "ASF",
    "icao_code": "URWA",
    "name": "Нарьян-Мар",
    "city": "Астрахань",
    "country": "Россия",
    "timezone": "Europe/Moscow",
    "latitude": 46.283333,
    "longitude": 48.006278
  },
  {
    "airport_id": 30,
    "iata_code": "KHV",
    "icao_code": "UHHH",
    "name": "Хабаровск",
    "city": "Хабаровск",
    "country": "Россия",
    "timezone": "Asia/Vladivostok",
    "latitude": 48.528044,
    "longitude": 135.188536
  }
]